{
    "unifi": [],
    "uisp": [
        {
            "name": "neocity-rf-f4cc-uranus",
            "model": "Loco5AC",
            "type": "airMax",
            "state": "active",
            "lat": 33.351207,
            "lon": -115.732572
        },
        {
            "name": "neocity-rf-1121-juicy",
            "model": "LBE-5AC-Gen2",
            "type": "airMax",
            "state": "active",
            "lat": 33.353549,
            "lon": -115.7315
        },
        {
            "name": "neocity-rf-9961-muzikmuzeum",
            "model": "NBE-5AC-Gen2",
            "type": "airMax",
            "state": "active",
            "lat": 33.351153,
            "lon": -115.733618
        },
        {
            "name": "chowtower-rf-sector-se",
            "model": "LAP-GPS",
            "type": "airMax",
            "state": "active",
            "lat": 33.35229,
            "lon": -115.73086
        },
        {
            "name": "neocity-rf-20d2-kona",
            "model": "NBE-5AC-Gen2",
            "type": "airMax",
            "state": "disconnected",
            "lat": 33.353068,
            "lon": -115.728937
        },
        {
            "name": "neocity-rf-32c2-joe",
            "model": "Loco5AC",
            "type": "airMax",
            "state": "active",
            "lat": 33.350084,
            "lon": -115.733518
        },
        {
            "name": "neocity-rf-90d7-chowmart",
            "model": "NBE-5AC-Gen2",
            "type": "airMax",
            "state": "active",
            "lat": 33.352629,
            "lon": -115.733733
        },
        {
            "name": "neocity-rf-9a92-limbolounge",
            "model": "LBE-5AC-Gen2",
            "type": "airMax",
            "state": "active",
            "lat": 33.351641,
            "lon": -115.728816
        },
        {
            "name": "venus-rf-sector-e",
            "model": "LAP-120",
            "type": "airMax",
            "state": "active",
            "lat": 33.354118,
            "lon": -115.729045
        },
        {
            "name": "neocity-rf-68ca-kim",
            "model": "Loco5AC",
            "type": "airMax",
            "state": "active",
            "lat": 33.351802,
            "lon": -115.726156
        },
        {
            "name": "Dada",
            "model": "LBE-5AC-Gen2",
            "type": "airMax",
            "state": "active",
            "lat": 33.352589,
            "lon": -115.728085
        },
        {
            "name": "neocity-rf-53c2-mercury",
            "model": "Loco5AC",
            "type": "airMax",
            "state": "active",
            "lat": 33.351221,
            "lon": -115.730496
        },
        {
            "name": "neocity-rf-98ef",
            "model": "NBE-5AC-Gen2",
            "type": "airMax",
            "state": "active",
            "lat": 33.352104,
            "lon": -115.72983
        },
        {
            "name": "neocity-rf-932a-institute",
            "model": "LBE-5AC-Gen2",
            "type": "airMax",
            "state": "active",
            "lat": 33.349186,
            "lon": -115.726604
        },
        {
            "name": "neocity-rf-seva",
            "model": "LBE-5AC-Gen2",
            "type": "airMax",
            "state": "active",
            "lat": 33.350425,
            "lon": -115.729371
        },
        {
            "name": "neocity-rf-39b8-dragonflyhouse",
            "model": "Loco5AC",
            "type": "airMax",
            "state": "active",
            "lat": 33.34954,
            "lon": -115.732078
        },
        {
            "name": "Palazzo",
            "model": "LBE-5AC-Gen2",
            "type": "airMax",
            "state": "active",
            "lat": 33.354137,
            "lon": -115.729691
        },
        {
            "name": "Tile House",
            "model": "LBE-5AC-Gen2",
            "type": "airMax",
            "state": "active",
            "lat": 33.349745,
            "lon": -115.729829
        },
        {
            "name": "chowtower-rf-sector-sw",
            "model": "LAP-GPS",
            "type": "airMax",
            "state": "active",
            "lat": 33.352214,
            "lon": -115.731131
        },
        {
            "name": "venus-rf-ptp-chowtower-05",
            "model": "LBE-5AC-Gen2",
            "type": "airMax",
            "state": "active",
            "lat": 33.354059,
            "lon": -115.729223
        },
        {
            "name": "neocity-rf-a1fb-zigzag",
            "model": "LBE-5AC-Gen2",
            "type": "airMax",
            "state": "active",
            "lat": 33.349092,
            "lon": -115.725982
        },
        {
            "name": "neocity-rf-0763-sharonda",
            "model": "Loco5AC",
            "type": "airMax",
            "state": "disconnected",
            "lat": 33.35206,
            "lon": -115.732672
        },
        {
            "name": "mars-rf-sector-n",
            "model": "LAP-120",
            "type": "airMax",
            "state": "active",
            "lat": 33.3628,
            "lon": -115.7152
        },
        {
            "name": "neocity-rf-1a25-salthouse",
            "model": "LBE-5AC-Gen2",
            "type": "airMax",
            "state": "active",
            "lat": 33.350876,
            "lon": -115.726142
        },
        {
            "name": "neocity-rf-2e6d-sunflowerlabs",
            "model": "Loco5AC",
            "type": "airMax",
            "state": "active",
            "lat": 33.349681,
            "lon": -115.733025
        },
        {
            "name": "neocity-rf-25d4-raphalots",
            "model": "Loco5AC",
            "type": "airMax",
            "state": "disconnected",
            "lat": 33.349088,
            "lon": -115.730342
        },
        {
            "name": "venus-rf-ptp-mars-60",
            "model": "GBE-LR",
            "type": "airMax",
            "state": "active",
            "lat": 33.354118,
            "lon": -115.729045
        },
        {
            "name": "neocity-rf-1015-richard",
            "model": "LBE-5AC-Gen2",
            "type": "airMax",
            "state": "disconnected",
            "lat": 33.34853,
            "lon": -115.726579
        },
        {
            "name": "neocity-rf-ce67",
            "model": "NBE-5AC-Gen2",
            "type": "airMax",
            "state": "active",
            "lat": 33.353053,
            "lon": -115.729931
        },
        {
            "name": "venus-rf-sector-s",
            "model": "LAP-120",
            "type": "airMax",
            "state": "active",
            "lat": 33.354118,
            "lon": -115.729045
        },
        {
            "name": "mars-rf-9e:5d-og",
            "model": "NBE-5AC-Gen2",
            "type": "airMax",
            "state": "active",
            "lat": 33.3632,
            "lon": -115.714805
        },
        {
            "name": "neocity-rf-06e9-compoundz",
            "model": "Loco5AC",
            "type": "airMax",
            "state": "active",
            "lat": 33.350559,
            "lon": -115.730425
        },
        {
            "name": "neocity-rf-7de1-wormhole",
            "model": "Loco5AC",
            "type": "airMax",
            "state": "active",
            "lat": 33.350066,
            "lon": -115.728881
        },
        {
            "name": "neocity-rf-19b8-electriclounge",
            "model": "Loco5AC",
            "type": "airMax",
            "state": "active",
            "lat": 33.352036,
            "lon": -115.729826
        },
        {
            "name": "Kim's Rental",
            "model": "LBE-5AC-Gen2",
            "type": "airMax",
            "state": "active",
            "lat": 33.347313,
            "lon": -115.729562
        },
        {
            "name": "2115 - Vlad ",
            "model": "LBE-5AC-Gen2",
            "type": "airMax",
            "state": "active",
            "lat": 33.349913,
            "lon": -115.729329
        },
        {
            "name": "neocity-rf-kamartaj-05",
            "model": "LBE-5AC-Gen2",
            "type": "airMax",
            "state": "disconnected",
            "lat": 33.353676,
            "lon": -115.72869
        },
        {
            "name": "Saturn",
            "model": "LBE-5AC-Gen2",
            "type": "airMax",
            "state": "active",
            "lat": 33.353,
            "lon": -115.732107
        },
        {
            "name": "neocity-rf-aa67-skullpony",
            "model": "LBE-5AC-Gen2",
            "type": "airMax",
            "state": "active",
            "lat": 33.350539,
            "lon": -115.729843
        },
        {
            "name": "neocity-rf-9e62-bbac",
            "model": "NBE-5AC-Gen2",
            "type": "airMax",
            "state": "active",
            "lat": 33.353174,
            "lon": -115.730525
        },
        {
            "name": "neocity-rf-a4b2-hunky",
            "model": "Loco5AC",
            "type": "airMax",
            "state": "active",
            "lat": 33.350833,
            "lon": -115.729321
        },
        {
            "name": "chowtower-rf-sector-n",
            "model": "LAP-GPS",
            "type": "airMax",
            "state": "active",
            "lat": 33.352393,
            "lon": -115.731029
        },
        {
            "name": "mars-rf-ptp-venus-60",
            "model": "GBE-LR",
            "type": "airMax",
            "state": "active",
            "lat": 33.362751,
            "lon": -115.7152
        },
        {
            "name": "Pirates",
            "model": "LBE-5AC-Gen2",
            "type": "airMax",
            "state": "disconnected",
            "lat": 33.350836,
            "lon": -115.729954
        },
        {
            "name": "neocity-rf-e6c2-ivan",
            "model": "LBE-5AC-Gen2",
            "type": "airMax",
            "state": "active",
            "lat": 33.351792,
            "lon": -115.729214
        },
        {
            "name": "chowtower-rf-ptp-venus-05",
            "model": "LBE-5AC-Gen2",
            "type": "airMax",
            "state": "active",
            "lat": 33.352337,
            "lon": -115.730971
        }
    ],
    "map_metadata": {
        "lat_min": 33.34651865,
        "lat_max": 33.36399435,
        "lon_min": -115.7346794,
        "lon_max": -115.7138586,
        "grid": "4x4"
    }
}